src/parambulator/scripts/ISS_eclipse.txt

Spacecraft: ISS

Start Time (UTC)            Stop Time (UTC)               Duration (s)    Occ Body        Type        Event Number  Total Duration (s)
11 Sep 2024 12:16:02.001    11 Sep 2024 12:16:17.629      15.627958195    Earth           Penumbra    1             1728.4791562
11 Sep 2024 12:16:17.629    11 Sep 2024 12:44:35.090      1697.4613436    Earth           Umbra       1             1728.4791562
11 Sep 2024 12:44:35.090    11 Sep 2024 12:44:50.480      15.389854414    Earth           Penumbra    1             1728.4791562
11 Sep 2024 13:48:54.396    11 Sep 2024 13:49:09.937      15.540476900    Earth           Penumbra    2             1732.9623949
11 Sep 2024 13:49:09.937    11 Sep 2024 14:17:32.057      1702.1202043    Earth           Umbra       2             1732.9623949
11 Sep 2024 14:17:32.057    11 Sep 2024 14:17:47.358      15.301713673    Earth           Penumbra    2             1732.9623949
11 Sep 2024 15:21:46.731    11 Sep 2024 15:22:02.183      15.452331444    Earth           Penumbra    3             1737.4649479
11 Sep 2024 15:22:02.183    11 Sep 2024 15:50:28.982      1706.7993959    Earth           Umbra       3             1737.4649479
11 Sep 2024 15:50:28.982    11 Sep 2024 15:50:44.196      15.213220578    Earth           Penumbra    3             1737.4649479
11 Sep 2024 16:54:38.984    11 Sep 2024 16:54:54.348      15.363826719    Earth           Penumbra    4             1741.9806622
11 Sep 2024 16:54:54.348    11 Sep 2024 17:23:25.840      1711.4925222    Earth           Umbra       4             1741.9806622
11 Sep 2024 17:23:25.840    11 Sep 2024 17:23:40.965      15.124313207    Earth           Penumbra    4             1741.9806622
11 Sep 2024 18:27:31.136    11 Sep 2024 18:27:46.412      15.275509015    Earth           Penumbra    5             1746.5049631
11 Sep 2024 18:27:46.412    11 Sep 2024 18:56:22.606      1716.1943751    Earth           Umbra       5             1746.5049631
11 Sep 2024 18:56:22.606    11 Sep 2024 18:56:37.641      15.035078942    Earth           Penumbra    5             1746.5049631
11 Sep 2024 20:00:23.191    11 Sep 2024 20:00:38.378      15.187115560    Earth           Penumbra    6             1751.0592339
11 Sep 2024 20:00:38.378    11 Sep 2024 20:29:19.305      1720.9267496    Earth           Umbra       6             1751.0592339
11 Sep 2024 20:29:19.305    11 Sep 2024 20:29:34.250      14.945368795    Earth           Penumbra    6             1751.0592339
11 Sep 2024 21:33:15.197    11 Sep 2024 21:33:30.295      15.097911470    Earth           Penumbra    7             1755.6664651
11 Sep 2024 21:33:30.295    11 Sep 2024 22:02:16.008      1725.7133039    Earth           Umbra       7             1755.6664651
11 Sep 2024 22:02:16.008    11 Sep 2024 22:02:30.863      14.855249715    Earth           Penumbra    7             1755.6664651
11 Sep 2024 23:06:07.204    11 Sep 2024 23:06:22.212      15.007984126    Earth           Penumbra    8             1760.3021238
11 Sep 2024 23:06:22.212    11 Sep 2024 23:35:12.740      1730.5287780    Earth           Umbra       8             1760.3021238
11 Sep 2024 23:35:12.740    11 Sep 2024 23:35:27.506      14.765361662    Earth           Penumbra    8             1760.3021238
12 Sep 2024 00:38:59.203    12 Sep 2024 00:39:14.122      14.918648649    Earth           Penumbra    9             1764.9007058
12 Sep 2024 00:39:14.122    12 Sep 2024 01:08:09.427      1735.3054793    Earth           Umbra       9             1764.9007058
12 Sep 2024 01:08:09.427    12 Sep 2024 01:08:24.104      14.676577819    Earth           Penumbra    9             1764.9007058
12 Sep 2024 02:11:51.128    12 Sep 2024 02:12:05.960      14.831194072    Earth           Penumbra    10            1769.4253172
12 Sep 2024 02:12:05.960    12 Sep 2024 02:41:05.964      1740.0047372    Earth           Umbra       10            1769.4253172
12 Sep 2024 02:41:05.964    12 Sep 2024 02:41:20.554      14.589386014    Earth           Penumbra    10            1769.4253172
12 Sep 2024 03:44:42.920    12 Sep 2024 03:44:57.665      14.745392511    Earth           Penumbra    11            1773.9080756
12 Sep 2024 03:44:57.665    12 Sep 2024 04:14:02.325      1744.6591627    Earth           Umbra       11            1773.9080756
12 Sep 2024 04:14:02.325    12 Sep 2024 04:14:16.828      14.503520331    Earth           Penumbra    11            1773.9080756
12 Sep 2024 05:17:34.563    12 Sep 2024 05:17:49.223      14.659763512    Earth           Penumbra    12            1778.4072019
12 Sep 2024 05:17:49.223    12 Sep 2024 05:46:58.552      1749.3293160    Earth           Umbra       12            1778.4072019
12 Sep 2024 05:46:58.552    12 Sep 2024 05:47:12.970      14.418122359    Earth           Penumbra    12            1778.4072019
12 Sep 2024 06:50:26.085    12 Sep 2024 06:50:40.659      14.573332050    Earth           Penumbra    13            1782.9429048
12 Sep 2024 06:50:40.659    12 Sep 2024 07:19:54.696      1754.0370131    Earth           Umbra       13            1782.9429048
12 Sep 2024 07:19:54.696    12 Sep 2024 07:20:09.028      14.332559681    Earth           Penumbra    13            1782.9429048
12 Sep 2024 08:23:17.540    12 Sep 2024 08:23:32.027      14.486756315    Earth           Penumbra    14            1787.4891903
12 Sep 2024 08:23:32.027    12 Sep 2024 08:52:50.782      1758.7552578    Earth           Umbra       14            1787.4891903
12 Sep 2024 08:52:50.782    12 Sep 2024 08:53:05.029      14.247176168    Earth           Penumbra    14            1787.4891903
12 Sep 2024 09:56:08.984    12 Sep 2024 09:56:23.385      14.401443524    Earth           Penumbra    15            1792.0120884
12 Sep 2024 09:56:23.385    12 Sep 2024 10:25:46.833      1763.4476817    Earth           Umbra       15            1792.0120884
12 Sep 2024 10:25:46.833    12 Sep 2024 10:26:00.996      14.162963186    Earth           Penumbra    15            1792.0120884
12 Sep 2024 11:29:00.438    12 Sep 2024 11:29:14.756      14.317899733    Earth           Penumbra    16            1796.5001248
12 Sep 2024 11:29:14.756    12 Sep 2024 11:58:42.858      1768.1018703    Earth           Umbra       16            1796.5001248
12 Sep 2024 11:58:42.858    12 Sep 2024 11:58:56.938      14.080354816    Earth           Penumbra    16            1796.5001248
12 Sep 2024 13:01:51.883    12 Sep 2024 13:02:06.119      14.235328767    Earth           Penumbra    17            1800.9645425
12 Sep 2024 13:02:06.119    12 Sep 2024 13:31:38.849      1772.7304420    Earth           Umbra       17            1800.9645425
12 Sep 2024 13:31:38.849    12 Sep 2024 13:31:52.848      13.998771762    Earth           Penumbra    17            1800.9645425
12 Sep 2024 14:34:43.287    12 Sep 2024 14:34:57.440      14.152765344    Earth           Penumbra    18            1805.4193680
12 Sep 2024 14:34:57.440    12 Sep 2024 15:04:34.789      1777.3491955    Earth           Umbra       18            1805.4193680
12 Sep 2024 15:04:34.789    12 Sep 2024 15:04:48.706      13.917407161    Earth           Penumbra    18            1805.4193680
12 Sep 2024 16:07:34.625    12 Sep 2024 16:07:48.696      14.070102910    Earth           Penumbra    19            1809.8630939
12 Sep 2024 16:07:48.696    12 Sep 2024 16:37:30.652      1781.9569563    Earth           Umbra       19            1809.8630939
12 Sep 2024 16:37:30.652    12 Sep 2024 16:37:44.489      13.836034702    Earth           Penumbra    19            1809.8630939
12 Sep 2024 17:40:25.881    12 Sep 2024 17:40:39.869      13.987844693    Earth           Penumbra    20            1814.2863726
12 Sep 2024 17:40:39.869    12 Sep 2024 18:10:26.412      1786.5437616    Earth           Umbra       20            1814.2863726
12 Sep 2024 18:10:26.412    12 Sep 2024 18:10:40.167      13.754766283    Earth           Penumbra    20            1814.2863726
12 Sep 2024 19:13:17.052    12 Sep 2024 19:13:30.958      13.906129939    Earth           Penumbra    21            1818.6989398
12 Sep 2024 19:13:30.958    12 Sep 2024 19:43:22.077      1791.1192551    Earth           Umbra       21            1818.6989398
12 Sep 2024 19:43:22.077    12 Sep 2024 19:43:35.750      13.673554757    Earth           Penumbra    21            1818.6989398
12 Sep 2024 20:46:08.175    12 Sep 2024 20:46:22.000      13.824473019    Earth           Penumbra    22            1823.1278369
12 Sep 2024 20:46:22.000    12 Sep 2024 21:16:17.711      1795.7110053    Earth           Umbra       22            1823.1278369
12 Sep 2024 21:16:17.711    12 Sep 2024 21:16:31.303      13.592358632    Earth           Penumbra    22            1823.1278369
12 Sep 2024 22:18:59.305    12 Sep 2024 22:19:13.048      13.742593559    Earth           Penumbra    23            1827.5733444
12 Sep 2024 22:19:13.048    12 Sep 2024 22:49:13.367      1800.3191866    Earth           Umbra       23            1827.5733444
12 Sep 2024 22:49:13.367    12 Sep 2024 22:49:26.879      13.511564210    Earth           Penumbra    23            1827.5733444
12 Sep 2024 23:51:50.448    12 Sep 2024 23:52:04.109      13.661169866    Earth           Penumbra    24            1831.9878925
12 Sep 2024 23:52:04.109    13 Sep 2024 00:22:09.004      1804.8948731    Earth           Umbra       24            1831.9878925
13 Sep 2024 00:22:09.004    13 Sep 2024 00:22:22.436      13.431849482    Earth           Penumbra    24            1831.9878925
13 Sep 2024 01:24:41.551    13 Sep 2024 01:24:55.133      13.581339153    Earth           Penumbra    25            1836.3242572
13 Sep 2024 01:24:55.133    13 Sep 2024 01:55:04.522      1809.3892271    Earth           Umbra       25            1836.3242572
13 Sep 2024 01:55:04.522    13 Sep 2024 01:55:17.876      13.353690959    Earth           Penumbra    25            1836.3242572
13 Sep 2024 02:57:32.554    13 Sep 2024 02:57:46.057      13.503410399    Earth           Penumbra    26            1840.5913273
13 Sep 2024 02:57:46.057    13 Sep 2024 03:27:59.868      1813.8108446    Earth           Umbra       26            1840.5913273
13 Sep 2024 03:27:59.868    13 Sep 2024 03:28:13.145      13.277072296    Earth           Penumbra    26            1840.5913273
13 Sep 2024 04:30:23.431    13 Sep 2024 04:30:36.857      13.426465786    Earth           Penumbra    27            1844.8383552
13 Sep 2024 04:30:36.857    13 Sep 2024 05:00:55.068      1818.2104105    Earth           Umbra       27            1844.8383552
13 Sep 2024 05:00:55.068    13 Sep 2024 05:01:08.269      13.201478950    Earth           Penumbra    27            1844.8383552
13 Sep 2024 06:03:14.196    13 Sep 2024 06:03:27.546      13.349453907    Earth           Penumbra    28            1849.0950917
13 Sep 2024 06:03:27.546    13 Sep 2024 06:33:50.165      1822.6193275    Earth           Umbra       28            1849.0950917
13 Sep 2024 06:33:50.165    13 Sep 2024 06:34:03.291      13.126310252    Earth           Penumbra    28            1849.0950917
13 Sep 2024 07:36:04.894    13 Sep 2024 07:36:18.167      13.272437314    Earth           Penumbra    29            1853.3498605
13 Sep 2024 07:36:18.167    13 Sep 2024 08:06:45.193      1827.0259437    Earth           Umbra       29            1853.3498605
13 Sep 2024 08:06:45.193    13 Sep 2024 08:06:58.244      13.051479449    Earth           Penumbra    29            1853.3498605
13 Sep 2024 09:08:55.581    13 Sep 2024 09:09:08.777      13.196420576    Earth           Penumbra    30            1857.5771695
13 Sep 2024 09:09:08.777    13 Sep 2024 09:39:40.180      1831.4031900    Earth           Umbra       30            1857.5771695
13 Sep 2024 09:39:40.180    13 Sep 2024 09:39:53.158      12.977558922    Earth           Penumbra    30            1857.5771695
13 Sep 2024 10:41:46.290    13 Sep 2024 10:41:59.412      13.122088287    Earth           Penumbra    31            1861.7648385
13 Sep 2024 10:41:59.412    13 Sep 2024 11:12:35.150      1835.7376647    Earth           Umbra       31            1861.7648385
13 Sep 2024 11:12:35.150    13 Sep 2024 11:12:48.055      12.905085529    Earth           Penumbra    31            1861.7648385
13 Sep 2024 12:14:37.013    13 Sep 2024 12:14:50.062      13.049057918    Earth           Penumbra    32            1865.9167302
13 Sep 2024 12:14:50.062    13 Sep 2024 12:45:30.095      1840.0338321    Earth           Umbra       32            1865.9167302
13 Sep 2024 12:45:30.095    13 Sep 2024 12:45:42.929      12.833840190    Earth           Penumbra    32            1865.9167302
13 Sep 2024 13:47:27.713    13 Sep 2024 13:47:40.690      12.976455968    Earth           Penumbra    33            1870.0423214
13 Sep 2024 13:47:40.690    13 Sep 2024 14:18:24.992      1844.3027343    Earth           Umbra       33            1870.0423214
13 Sep 2024 14:18:24.992    13 Sep 2024 14:18:37.755      12.763131084    Earth           Penumbra    33            1870.0423214
13 Sep 2024 15:20:18.363    13 Sep 2024 15:20:31.267      12.903900223    Earth           Penumbra    34            1874.1431821
13 Sep 2024 15:20:31.267    13 Sep 2024 15:51:19.814      1848.5467074    Earth           Umbra       34            1874.1431821
13 Sep 2024 15:51:19.814    13 Sep 2024 15:51:32.507      12.692574423    Earth           Penumbra    34            1874.1431821
13 Sep 2024 16:53:08.945    13 Sep 2024 16:53:21.777      12.831701234    Earth           Penumbra    35            1878.2103962
13 Sep 2024 16:53:21.777    13 Sep 2024 17:24:14.533      1852.7564522    Earth           Umbra       35            1878.2103962
13 Sep 2024 17:24:14.533    13 Sep 2024 17:24:27.155      12.622242817    Earth           Penumbra    35            1878.2103962
13 Sep 2024 18:25:59.453    13 Sep 2024 18:26:12.213      12.760184321    Earth           Penumbra    36            1882.2440940
13 Sep 2024 18:26:12.213    13 Sep 2024 18:57:09.145      1856.9317096    Earth           Umbra       36            1882.2440940
13 Sep 2024 18:57:09.145    13 Sep 2024 18:57:21.697      12.552200072    Earth           Penumbra    36            1882.2440940
13 Sep 2024 19:58:49.918    13 Sep 2024 19:59:02.607      12.689160265    Earth           Penumbra    37            1886.2667113
13 Sep 2024 19:59:02.607    13 Sep 2024 20:30:03.702      1861.0951627    Earth           Umbra       37            1886.2667113
13 Sep 2024 20:30:03.702    13 Sep 2024 20:30:16.184      12.482388353    Earth           Penumbra    37            1886.2667113
13 Sep 2024 21:31:40.390    13 Sep 2024 21:31:53.008      12.618261622    Earth           Penumbra    38            1890.2945341
13 Sep 2024 21:31:53.008    13 Sep 2024 22:02:58.271      1865.2632904    Earth           Umbra       38            1890.2945341
13 Sep 2024 22:02:58.271    13 Sep 2024 22:03:10.684      12.412982108    Earth           Penumbra    38            1890.2945341
13 Sep 2024 23:04:30.889    13 Sep 2024 23:04:43.437      12.547698990    Earth           Penumbra    39            1894.3017701
13 Sep 2024 23:04:43.437    13 Sep 2024 23:35:52.847      1869.4096088    Earth           Umbra       39            1894.3017701
13 Sep 2024 23:35:52.847    13 Sep 2024 23:36:05.191      12.344462250    Earth           Penumbra    39            1894.3017701
14 Sep 2024 00:37:21.376    14 Sep 2024 00:37:33.854      12.478308461    Earth           Penumbra    40            1898.2417328
14 Sep 2024 00:37:33.854    14 Sep 2024 01:08:47.340      1873.4861461    Earth           Umbra       40            1898.2417328
14 Sep 2024 01:08:47.340    14 Sep 2024 01:08:59.617      12.277278258    Earth           Penumbra    40            1898.2417328
14 Sep 2024 02:10:11.789    14 Sep 2024 02:10:24.200      12.410657073    Earth           Penumbra    41            1902.1043379
14 Sep 2024 02:10:24.200    14 Sep 2024 02:41:41.682      1877.4821394    Earth           Umbra       41            1902.1043379
14 Sep 2024 02:41:41.682    14 Sep 2024 02:41:53.893      12.211541401    Earth           Penumbra    41            1902.1043379
14 Sep 2024 03:43:02.098    14 Sep 2024 03:43:14.443      12.344323320    Earth           Penumbra    42            1905.9257700
14 Sep 2024 03:43:14.443    14 Sep 2024 04:14:35.877      1881.4344446    Earth           Umbra       42            1905.9257700
14 Sep 2024 04:14:35.877    14 Sep 2024 04:14:48.024      12.147002108    Earth           Penumbra    42            1905.9257700
14 Sep 2024 05:15:52.307    14 Sep 2024 05:16:04.586      12.278394727    Earth           Penumbra    43            1909.7397949
14 Sep 2024 05:16:04.586    14 Sep 2024 05:47:29.964      1885.3781977    Earth           Umbra       43            1909.7397949
14 Sep 2024 05:47:29.964    14 Sep 2024 05:47:42.047      12.083202414    Earth           Penumbra    43            1909.7397949
14 Sep 2024 06:48:42.449    14 Sep 2024 06:48:54.661      12.212571118    Earth           Penumbra    44            1913.5451529
14 Sep 2024 06:48:54.661    14 Sep 2024 07:20:23.974      1889.3127139    Earth           Umbra       44            1913.5451529
14 Sep 2024 07:20:23.974    14 Sep 2024 07:20:35.994      12.019867916    Earth           Penumbra    44            1913.5451529
14 Sep 2024 08:21:32.575    14 Sep 2024 08:21:44.722      12.147466047    Earth           Penumbra    45            1917.3232131
14 Sep 2024 08:21:44.722    14 Sep 2024 08:53:17.941      1893.2185347    Earth           Umbra       45            1917.3232131
14 Sep 2024 08:53:17.941    14 Sep 2024 08:53:29.898      11.957212351    Earth           Penumbra    45            1917.3232131
14 Sep 2024 09:54:22.728    14 Sep 2024 09:54:34.812      12.083767878    Earth           Penumbra    46            1921.0635752
14 Sep 2024 09:54:34.812    14 Sep 2024 10:26:11.896      1897.0841164    Earth           Umbra       46            1921.0635752
14 Sep 2024 10:26:11.896    14 Sep 2024 10:26:23.792      11.895690858    Earth           Penumbra    46            1921.0635752
14 Sep 2024 11:27:12.912    14 Sep 2024 11:27:24.933      12.021411862    Earth           Penumbra    47            1924.7666094
14 Sep 2024 11:27:24.933    14 Sep 2024 11:59:05.843      1900.9098434    Earth           Umbra       47            1924.7666094
14 Sep 2024 11:59:05.843    14 Sep 2024 11:59:17.679      11.835354043    Earth           Penumbra    47            1924.7666094
14 Sep 2024 13:00:03.093    14 Sep 2024 13:00:15.053      11.959715921    Earth           Penumbra    48            1928.4364657
14 Sep 2024 13:00:15.053    14 Sep 2024 13:31:59.754      1904.7010451    Earth           Umbra       48            1928.4364657
14 Sep 2024 13:31:59.754    14 Sep 2024 13:32:11.529      11.775704648    Earth           Penumbra    48            1928.4364657
14 Sep 2024 14:32:53.238    14 Sep 2024 14:33:05.136      11.898166768    Earth           Penumbra    49            1932.0746566
14 Sep 2024 14:33:05.136    14 Sep 2024 15:04:53.596      1908.4602061    Earth           Umbra       49            1932.0746566
14 Sep 2024 15:04:53.596    14 Sep 2024 15:05:05.312      11.716283765    Earth           Penumbra    49            1932.0746566
14 Sep 2024 16:05:43.324    14 Sep 2024 16:05:55.161      11.836857127    Earth           Penumbra    50            1935.6748222
14 Sep 2024 16:05:55.161    14 Sep 2024 16:37:47.342      1912.1809007    Earth           Umbra       50            1935.6748222
14 Sep 2024 16:37:47.342    14 Sep 2024 16:37:58.999      11.657064361    Earth           Penumbra    50            1935.6748222
14 Sep 2024 17:38:33.347    14 Sep 2024 17:38:45.123      11.776139983    Earth           Penumbra    51            1939.2319356
14 Sep 2024 17:38:45.123    14 Sep 2024 18:10:40.980      1915.8576168    Earth           Umbra       51            1939.2319356
14 Sep 2024 18:10:40.980    14 Sep 2024 18:10:52.579      11.598178768    Earth           Penumbra    51            1939.2319356
14 Sep 2024 19:11:23.327    14 Sep 2024 19:11:35.043      11.716058711    Earth           Penumbra    52            1942.7601511
14 Sep 2024 19:11:35.043    14 Sep 2024 19:43:34.548      1919.5044616    Earth           Umbra       52            1942.7601511
14 Sep 2024 19:43:34.548    14 Sep 2024 19:43:46.087      11.539630755    Earth           Penumbra    52            1942.7601511
14 Sep 2024 20:44:13.315    14 Sep 2024 20:44:24.971      11.656320363    Earth           Penumbra    53            1946.2820771
14 Sep 2024 20:44:24.971    14 Sep 2024 21:16:28.116      1923.1442971    Earth           Umbra       53            1946.2820771
14 Sep 2024 21:16:28.116    14 Sep 2024 21:16:39.597      11.481459613    Earth           Penumbra    53            1946.2820771
14 Sep 2024 22:17:03.339    14 Sep 2024 22:17:14.936      11.596861761    Earth           Penumbra    54            1949.7915956
14 Sep 2024 22:17:14.936    14 Sep 2024 22:49:21.706      1926.7707743    Earth           Umbra       54            1949.7915956
14 Sep 2024 22:49:21.706    14 Sep 2024 22:49:33.130      11.423959548    Earth           Penumbra    54            1949.7915956
14 Sep 2024 23:49:53.370    14 Sep 2024 23:50:04.908      11.538198392    Earth           Penumbra    55            1953.2507422
14 Sep 2024 23:50:04.908    15 Sep 2024 00:22:15.253      1930.3450310    Earth           Umbra       55            1953.2507422
15 Sep 2024 00:22:15.253    15 Sep 2024 00:22:26.621      11.367512774    Earth           Penumbra    55            1953.2507422
15 Sep 2024 01:22:43.351    15 Sep 2024 01:22:54.832      11.480942555    Earth           Penumbra    56            1956.6370567
15 Sep 2024 01:22:54.832    15 Sep 2024 01:55:08.676      1933.8438028    Earth           Umbra       56            1956.6370567
15 Sep 2024 01:55:08.676    15 Sep 2024 01:55:19.988      11.312311341    Earth           Penumbra    56            1956.6370567
15 Sep 2024 02:55:33.247    15 Sep 2024 02:55:44.672      11.425049615    Earth           Penumbra    57            1959.9720900
15 Sep 2024 02:55:44.672    15 Sep 2024 03:28:01.960      1937.2887656    Earth           Umbra       57            1959.9720900
15 Sep 2024 03:28:01.960    15 Sep 2024 03:28:13.219      11.258274782    Earth           Penumbra    57            1959.9720900
15 Sep 2024 04:28:23.053    15 Sep 2024 04:28:34.423      11.369840638    Earth           Penumbra    58            1963.2892860
15 Sep 2024 04:28:34.423    15 Sep 2024 05:00:55.138      1940.7143377    Earth           Umbra       58            1963.2892860
15 Sep 2024 05:00:55.138    15 Sep 2024 05:01:06.343      11.205107637    Earth           Penumbra    58            1963.2892860
15 Sep 2024 06:01:12.794    15 Sep 2024 06:01:24.108      11.314843199    Earth           Penumbra    59            1966.5951025
15 Sep 2024 06:01:24.108    15 Sep 2024 06:33:48.236      1944.1277543    Earth           Umbra       59            1966.5951025
15 Sep 2024 06:33:48.236    15 Sep 2024 06:33:59.389      11.152505013    Earth           Penumbra    59            1966.5951025
15 Sep 2024 07:34:02.512    15 Sep 2024 07:34:13.772      11.260338931    Earth           Penumbra    60            1969.8758195
15 Sep 2024 07:34:13.772    15 Sep 2024 08:06:41.287      1947.5150376    Earth           Umbra       60            1969.8758195
15 Sep 2024 08:06:41.287    15 Sep 2024 08:06:52.388      11.100443022    Earth           Penumbra    60            1969.8758195
15 Sep 2024 09:06:52.257    15 Sep 2024 09:07:03.464      11.206930387    Earth           Penumbra    61            1973.1227492
15 Sep 2024 09:07:03.464    15 Sep 2024 09:39:34.330      1950.8666036    Earth           Umbra       61            1973.1227492
15 Sep 2024 09:39:34.330    15 Sep 2024 09:39:45.380      11.049215239    Earth           Penumbra    61            1973.1227492
15 Sep 2024 10:39:42.043    15 Sep 2024 10:39:53.198      11.154757754    Earth           Penumbra    62            1976.3357881
15 Sep 2024 10:39:53.198    15 Sep 2024 11:12:27.380      1954.1820336    Earth           Umbra       62            1976.3357881
15 Sep 2024 11:12:27.380    15 Sep 2024 11:12:38.379      10.998996743    Earth           Penumbra    62            1976.3357881
15 Sep 2024 12:12:31.844    15 Sep 2024 12:12:42.948      11.103347980    Earth           Penumbra    63            1979.5154678
15 Sep 2024 12:12:42.948    15 Sep 2024 12:45:20.410      1957.4626054    Earth           Umbra       63            1979.5154678
15 Sep 2024 12:45:20.410    15 Sep 2024 12:45:31.360      10.949514387    Earth           Penumbra    63            1979.5154678
15 Sep 2024 13:45:21.623    15 Sep 2024 13:45:32.675      11.052166717    Earth           Penumbra    64            1982.6609512
15 Sep 2024 13:45:32.675    15 Sep 2024 14:18:13.383      1960.7084683    Earth           Umbra       64            1982.6609512
15 Sep 2024 14:18:13.383    15 Sep 2024 14:18:24.284      10.900316178    Earth           Penumbra    64            1982.6609512
15 Sep 2024 15:18:11.353    15 Sep 2024 15:18:22.354      11.001127842    Earth           Penumbra    65            1985.7678576
15 Sep 2024 15:18:22.354    15 Sep 2024 15:51:06.269      1963.9154694    Earth           Umbra       65            1985.7678576
15 Sep 2024 15:51:06.269    15 Sep 2024 15:51:17.121      10.851260356    Earth           Penumbra    65            1985.7678576
15 Sep 2024 16:51:01.024    15 Sep 2024 16:51:11.975      10.950518330    Earth           Penumbra    66            1988.8299437
15 Sep 2024 16:51:11.975    15 Sep 2024 17:23:59.052      1967.0769383    Earth           Umbra       66            1988.8299437
15 Sep 2024 17:23:59.052    15 Sep 2024 17:24:09.854      10.802487109    Earth           Penumbra    66            1988.8299437
15 Sep 2024 18:23:50.655    15 Sep 2024 18:24:01.555      10.900522058    Earth           Penumbra    67            1991.8535569
15 Sep 2024 18:24:01.555    15 Sep 2024 18:56:51.754      1970.1989491    Earth           Umbra       67            1991.8535569
15 Sep 2024 18:56:51.754    15 Sep 2024 18:57:02.508      10.754085705    Earth           Penumbra    67            1991.8535569
15 Sep 2024 19:56:40.290    15 Sep 2024 19:56:51.141      10.850983753    Earth           Penumbra    68            1994.8602548
15 Sep 2024 19:56:51.141    15 Sep 2024 20:29:44.444      1973.3032231    Earth           Umbra       68            1994.8602548
15 Sep 2024 20:29:44.444    15 Sep 2024 20:29:55.150      10.706047970    Earth           Penumbra    68            1994.8602548
15 Sep 2024 21:29:29.966    15 Sep 2024 21:29:40.768      10.801723308    Earth           Penumbra    69            1997.8580191
15 Sep 2024 21:29:40.768    15 Sep 2024 22:02:37.166      1976.3977915    Earth           Umbra       69            1997.8580191
15 Sep 2024 22:02:37.166    15 Sep 2024 22:02:47.824      10.658504348    Earth           Penumbra    69            1997.8580191
15 Sep 2024 23:02:19.666    15 Sep 2024 23:02:30.419      10.752980551    Earth           Penumbra    70            2000.8219533
15 Sep 2024 23:02:30.419    15 Sep 2024 23:35:29.876      1979.4572241    Earth           Umbra       70            2000.8219533
15 Sep 2024 23:35:29.876    15 Sep 2024 23:35:40.488      10.611748730    Earth           Penumbra    70            2000.8219533
16 Sep 2024 00:35:09.335    16 Sep 2024 00:35:20.040      10.705292656    Earth           Penumbra    71            2003.7244814
16 Sep 2024 00:35:20.040    16 Sep 2024 01:08:22.493      1982.4531757    Earth           Umbra       71            2003.7244814
16 Sep 2024 01:08:22.493    16 Sep 2024 01:08:33.059      10.566013085    Earth           Penumbra    71            2003.7244814
16 Sep 2024 02:07:58.933    16 Sep 2024 02:08:09.592      10.658854502    Earth           Penumbra    72            2006.5732486
16 Sep 2024 02:08:09.592    16 Sep 2024 02:41:14.985      1985.3930690    Earth           Umbra       72            2006.5732486
16 Sep 2024 02:41:14.985    16 Sep 2024 02:41:25.506      10.521325073    Earth           Penumbra    72            2006.5732486
16 Sep 2024 03:40:48.454    16 Sep 2024 03:40:59.067      10.613243328    Earth           Penumbra    73            2009.3978426
16 Sep 2024 03:40:59.067    16 Sep 2024 04:14:07.374      1988.3070783    Earth           Umbra       73            2009.3978426
16 Sep 2024 04:14:07.374    16 Sep 2024 04:14:17.851      10.477520933    Earth           Penumbra    73            2009.3978426
16 Sep 2024 05:13:37.910    16 Sep 2024 05:13:48.478      10.567947733    Earth           Penumbra    74            2012.2104860
16 Sep 2024 05:13:48.478    16 Sep 2024 05:46:59.686      1991.2081951    Earth           Umbra       74            2012.2104860
16 Sep 2024 05:46:59.686    16 Sep 2024 05:47:10.120      10.434343235    Earth           Penumbra    74            2012.2104860
16 Sep 2024 06:46:27.338    16 Sep 2024 06:46:37.861      10.522999149    Earth           Penumbra    75            2015.0013775
16 Sep 2024 06:46:37.861    16 Sep 2024 07:19:51.948      1994.0867272    Earth           Umbra       75            2015.0013775
16 Sep 2024 07:19:51.948    16 Sep 2024 07:20:02.340      10.391651164    Earth           Penumbra    75            2015.0013775
16 Sep 2024 08:19:16.787    16 Sep 2024 08:19:27.266      10.478865600    Earth           Penumbra    76            2017.7623522
16 Sep 2024 08:19:27.266    16 Sep 2024 08:52:44.200      1996.9339222    Earth           Umbra       76            2017.7623522
16 Sep 2024 08:52:44.200    16 Sep 2024 08:52:54.550      10.349564475    Earth           Penumbra    76            2017.7623522
16 Sep 2024 09:52:06.284    16 Sep 2024 09:52:16.719      10.435803572    Earth           Penumbra    77            2020.4939970
16 Sep 2024 09:52:16.719    16 Sep 2024 10:25:36.469      1999.7499097    Earth           Umbra       77            2020.4939970
16 Sep 2024 10:25:36.469    16 Sep 2024 10:25:46.778      10.308283707    Earth           Penumbra    77            2020.4939970
16 Sep 2024 11:24:55.810    16 Sep 2024 11:25:06.204      10.393530806    Earth           Penumbra    78            1862.1898516
16 Sep 2024 11:25:06.204    16 Sep 2024 11:55:58.000      1851.7963208    Earth           Umbra       78            1862.1898516

Number of individual events : 233
Number of total events      : 78
Maximum duration (s)        :   2020.4939970
Maximum duration at the 77th eclipse.


