src/parambulator/scripts/ISS_eclipse.txt

Spacecraft: ISS

Start Time (UTC)            Stop Time (UTC)               Duration (s)    Occ Body        Type        Event Number  Total Duration (s)
12 Sep 2024 18:39:42.000    12 Sep 2024 18:59:41.575      1199.5750936    Earth           Umbra       1             1199.5750936
12 Sep 2024 20:04:19.449    12 Sep 2024 20:32:53.032      1713.5832752    Earth           Umbra       2             1713.5832752
12 Sep 2024 21:37:26.183    12 Sep 2024 22:06:04.499      1718.3153428    Earth           Umbra       3             1718.3153428
12 Sep 2024 23:10:32.920    12 Sep 2024 23:39:15.997      1723.0767027    Earth           Umbra       4             1723.0767027
13 Sep 2024 00:43:39.648    13 Sep 2024 01:12:27.447      1727.7992144    Earth           Umbra       5             1727.7992144
13 Sep 2024 02:16:46.300    13 Sep 2024 02:45:38.748      1732.4480516    Earth           Umbra       6             1732.4480516
13 Sep 2024 03:49:52.817    13 Sep 2024 04:18:49.876      1737.0592709    Earth           Umbra       7             1737.0592709
13 Sep 2024 05:22:59.185    13 Sep 2024 05:52:00.878      1741.6926957    Earth           Umbra       8             1741.6926957
13 Sep 2024 06:56:05.434    13 Sep 2024 07:25:11.801      1746.3669788    Earth           Umbra       9             1746.3669788
13 Sep 2024 08:29:11.618    13 Sep 2024 08:58:22.671      1751.0532445    Earth           Umbra       10            1751.0532445
13 Sep 2024 10:02:17.792    13 Sep 2024 10:31:33.508      1755.7154414    Earth           Umbra       11            1755.7154414
13 Sep 2024 11:35:23.978    13 Sep 2024 12:04:44.320      1760.3422651    Earth           Umbra       12            1760.3422651
13 Sep 2024 13:08:30.153    13 Sep 2024 13:37:55.099      1764.9467108    Earth           Umbra       13            1764.9467108
13 Sep 2024 14:41:36.284    13 Sep 2024 15:11:05.828      1769.5436363    Earth           Umbra       14            1769.5436363
13 Sep 2024 16:14:42.349    13 Sep 2024 16:44:16.480      1774.1310218    Earth           Umbra       15            1774.1310218
13 Sep 2024 17:47:48.330    13 Sep 2024 18:17:27.030      1778.7005269    Earth           Umbra       16            1778.7005269

Number of individual events : 16
Number of total events      : 16
Maximum duration (s)        :   1778.7005269
Maximum duration at the 16th eclipse.


